[
  {
    "id": "we-love-mma-60",
    "time": "2022-04-09T17:00:00Z",
    "title": "WE LOVE MMA 55",
    "city": "München",
    "location": "Kleine Olympiahalle",
    "url": "https://www.welovemma.de/we-love-mma-60/"
  },
  {
    "id": "we-love-mma-59",
    "time": "2022-04-30T17:00:00Z",
    "title": "WE LOVE MMA 56",
    "city": "Hannover",
    "location": "SWISS LIFE HALL",
    "url": "https://www.welovemma.de/we-love-mma-59/"
  },
  {
    "id": "we-love-mma-61",
    "time": "2022-05-21T17:00:00Z",
    "title": "WE LOVE MMA 57",
    "city": "Düsseldorf",
    "location": "Castello Düsseldorf",
    "url": "https://www.welovemma.de/we-love-mma-61/"
  },
  {
    "id": "we-love-mma-61-2",
    "time": "2022-09-17T17:00:00Z",
    "title": "WE LOVE MMA 59",
    "city": "Frankfurt",
    "location": "Jahrhunderthalle",
    "url": "https://www.welovemma.de/we-love-mma-61-2/"
  },
  {
    "id": "we-love-mma-62",
    "time": "2022-10-08T17:00:00Z",
    "title": "WE LOVE MMA 60",
    "city": "Nürnberg",
    "location": "ARENA NÜRNBERGER Versicherung",
    "url": "https://www.welovemma.de/we-love-mma-62/"
  },
  {
    "id": "we-love-mma-56",
    "time": "2022-10-29T17:00:00Z",
    "title": "WE LOVE MMA 61",
    "city": "Hamburg",
    "location": "Barclays Arena",
    "url": "https://www.welovemma.de/we-love-mma-56/"
  },
  {
    "id": "we-love-mma-57",
    "time": "2022-11-05T18:00:00Z",
    "title": "WE LOVE MMA 62",
    "city": "Stuttgart",
    "location": "Porsche-Arena",
    "url": "https://www.welovemma.de/we-love-mma-57/"
  },
  {
    "id": "we-love-mma-58",
    "time": "2022-11-19T18:00:00Z",
    "title": "WE LOVE MMA 63",
    "city": "Berlin",
    "location": "Mercedes-Benz Arena",
    "url": "https://www.welovemma.de/we-love-mma-58/"
  }
]